{
    "countries": [
        {
            "country": "Afghanistan",
            "es_name": "Afghanistan",
            "code": "AF",
            "flag": "https://www.countryflags.io/AF/flat/64.png",
            "image": "https://res.cloudinary.com/lconder/image/upload/v1604318980/countries/AF.jpg",
            "latitude": "33.93911",
            "longitude": "67.709953",
            "isFavorite": false
        },
        {
            "country": "Albania",
            "es_name": "Albania",
            "code": "AL",
            "flag": "https://www.countryflags.io/AL/flat/64.png",
            "image": "https://res.cloudinary.com/lconder/image/upload/v1604318980/countries/AL.jpg",
            "latitude": "41.153332",
            "longitude": "20.168331",
            "isFavorite": false
        },
        {
            "country": "Algeria",
            "es_name": "Algeria",
            "code": "DZ",
            "flag": "https://www.countryflags.io/DZ/flat/64.png",
            "image": "https://res.cloudinary.com/lconder/image/upload/v1604318980/countries/DZ.jpg",
            "latitude": "28.033886",
            "longitude": "1.659626",
            "isFavorite": false
        },
        {
            "country": "Andorra",
            "es_name": "Andorra",
            "code": "AD",
            "flag": "https://www.countryflags.io/AD/flat/64.png",
            "image": "https://res.cloudinary.com/lconder/image/upload/v1604318980/countries/AD.jpg",
            "latitude": "42.546245",
            "longitude": "1.601554",
            "isFavorite": false
        },
        {
            "country": "Angola",
            "es_name": "Angola",
            "code": "AO",
            "flag": "https://www.countryflags.io/AO/flat/64.png",
            "image": "https://res.cloudinary.com/lconder/image/upload/v1604318980/countries/AO.jpg",
            "latitude": "-11.202692",
            "longitude": "17.873887",
            "isFavorite": false
        },
        {
            "country": "Antigua and Barbuda",
            "es_name": "Antigua and Barbuda",
            "code": "AG",
            "flag": "https://www.countryflags.io/AG/flat/64.png",
            "image": "https://res.cloudinary.com/lconder/image/upload/v1604318980/countries/AG.jpg",
            "latitude": "17.060816",
            "longitude": "-61.796428",
            "isFavorite": false
        },
        {
            "country": "Argentina",
            "es_name": "Argentina",
            "code": "AR",
            "flag": "https://www.countryflags.io/AR/flat/64.png",
            "image": "https://res.cloudinary.com/lconder/image/upload/v1604318980/countries/AR.jpg",
            "latitude": "-38.416097",
            "longitude": "-63.616672",
            "isFavorite": false
        },
        {
            "country": "Armenia",
            "es_name": "Armenia",
            "code": "AM",
            "flag": "https://www.countryflags.io/AM/flat/64.png",
            "image": "https://res.cloudinary.com/lconder/image/upload/v1604318980/countries/AM.jpg",
            "latitude": "40.069099",
            "longitude": "45.038189",
            "isFavorite": false
        },
        {
            "country": "Australia",
            "es_name": "Australia",
            "code": "AU",
            "flag": "https://www.countryflags.io/AU/flat/64.png",
            "image": "https://res.cloudinary.com/lconder/image/upload/v1604318980/countries/AU.jpg",
            "latitude": "-25.274398",
            "longitude": "133.775136",
            "isFavorite": false
        },
        {
            "country": "Austria",
            "es_name": "Austria",
            "code": "AT",
            "flag": "https://www.countryflags.io/AT/flat/64.png",
            "image": "https://res.cloudinary.com/lconder/image/upload/v1604318980/countries/AT.jpg",
            "latitude": "47.516231",
            "longitude": "14.550072",
            "isFavorite": false
        },
        {
            "country": "Azerbaijan",
            "es_name": "Azerbaijan",
            "code": "AZ",
            "flag": "https://www.countryflags.io/AZ/flat/64.png",
            "image": "https://res.cloudinary.com/lconder/image/upload/v1604318980/countries/AZ.jpg",
            "latitude": "40.143105",
            "longitude": "47.576927",
            "isFavorite": false
        },
        {
            "country": "Bahamas",
            "es_name": "Bahamas",
            "code": "BS",
            "flag": "https://www.countryflags.io/BS/flat/64.png",
            "image": "https://res.cloudinary.com/lconder/image/upload/v1604318980/countries/BS.jpg",
            "latitude": "25.03428",
            "longitude": "-77.39628",
            "isFavorite": false
        },
        {
            "country": "Bahrain",
            "es_name": "Bahrain",
            "code": "BH",
            "flag": "https://www.countryflags.io/BH/flat/64.png",
            "image": "https://res.cloudinary.com/lconder/image/upload/v1604318980/countries/BH.jpg",
            "latitude": "25.930414",
            "longitude": "50.637772",
            "isFavorite": false
        },
        {
            "country": "Bangladesh",
            "es_name": "Bangladesh",
            "code": "BD",
            "flag": "https://www.countryflags.io/BD/flat/64.png",
            "image": "https://res.cloudinary.com/lconder/image/upload/v1604318980/countries/BD.jpg",
            "latitude": "23.684994",
            "longitude": "90.356331",
            "isFavorite": false
        },
        {
            "country": "Barbados",
            "es_name": "Barbados",
            "code": "BB",
            "flag": "https://www.countryflags.io/BB/flat/64.png",
            "image": "https://res.cloudinary.com/lconder/image/upload/v1604318980/countries/BB.jpg",
            "latitude": "13.193887",
            "longitude": "-59.543198",
            "isFavorite": false
        },
        {
            "country": "Belarus",
            "es_name": "Belarus",
            "code": "BY",
            "flag": "https://www.countryflags.io/BY/flat/64.png",
            "image": "https://res.cloudinary.com/lconder/image/upload/v1604318980/countries/BY.jpg",
            "latitude": "53.709807",
            "longitude": "27.953389",
            "isFavorite": false
        },
        {
            "country": "Belgium",
            "es_name": "Belgium",
            "code": "BE",
            "flag": "https://www.countryflags.io/BE/flat/64.png",
            "image": "https://res.cloudinary.com/lconder/image/upload/v1604318980/countries/BE.jpg",
            "latitude": "50.503887",
            "longitude": "4.469936",
            "isFavorite": false
        },
        {
            "country": "Belize",
            "es_name": "Belize",
            "code": "BZ",
            "flag": "https://www.countryflags.io/BZ/flat/64.png",
            "image": "https://res.cloudinary.com/lconder/image/upload/v1604318980/countries/BZ.jpg",
            "latitude": "17.189877",
            "longitude": "-88.49765",
            "isFavorite": false
        },
        {
            "country": "Benin",
            "es_name": "Benin",
            "code": "BJ",
            "flag": "https://www.countryflags.io/BJ/flat/64.png",
            "image": "https://res.cloudinary.com/lconder/image/upload/v1604318980/countries/BJ.jpg",
            "latitude": "9.30769",
            "longitude": "2.315834",
            "isFavorite": false
        },
        {
            "country": "Bhutan",
            "es_name": "Bhutan",
            "code": "BT",
            "flag": "https://www.countryflags.io/BT/flat/64.png",
            "image": "https://res.cloudinary.com/lconder/image/upload/v1604318980/countries/BT.jpg",
            "latitude": "27.514162",
            "longitude": "90.433601",
            "isFavorite": false
        },
        {
            "country": "Bolivia",
            "es_name": "Bolivia",
            "code": "BO",
            "flag": "https://www.countryflags.io/BO/flat/64.png",
            "image": "https://res.cloudinary.com/lconder/image/upload/v1604318980/countries/BO.jpg",
            "latitude": "-16.290154",
            "longitude": "-63.588653",
            "isFavorite": false
        },
        {
            "country": "Bosnia and Herzegovina",
            "es_name": "Bosnia and Herzegovina",
            "code": "BA",
            "flag": "https://www.countryflags.io/BA/flat/64.png",
            "image": "https://res.cloudinary.com/lconder/image/upload/v1604318980/countries/BA.jpg",
            "latitude": "43.915886",
            "longitude": "17.679076",
            "isFavorite": false
        },
        {
            "country": "Botswana",
            "es_name": "Botswana",
            "code": "BW",
            "flag": "https://www.countryflags.io/BW/flat/64.png",
            "image": "https://res.cloudinary.com/lconder/image/upload/v1604318980/countries/BW.jpg",
            "latitude": "-22.328474",
            "longitude": "24.684866",
            "isFavorite": false
        },
        {
            "country": "Brazil",
            "es_name": "Brazil",
            "code": "BR",
            "flag": "https://www.countryflags.io/BR/flat/64.png",
            "image": "https://res.cloudinary.com/lconder/image/upload/v1604318980/countries/BR.jpg",
            "latitude": "-14.235004",
            "longitude": "-51.92528",
            "isFavorite": false
        },
        {
            "country": "Brunei Darussalam",
            "es_name": "Brunei Darussalam",
            "code": "BN",
            "flag": "https://www.countryflags.io/BN/flat/64.png",
            "image": "https://res.cloudinary.com/lconder/image/upload/v1604318980/countries/BN.jpg",
            "latitude": "4.535277",
            "longitude": "114.727669",
            "isFavorite": false
        },
        {
            "country": "Bulgaria",
            "es_name": "Bulgaria",
            "code": "BG",
            "flag": "https://www.countryflags.io/BG/flat/64.png",
            "image": "https://res.cloudinary.com/lconder/image/upload/v1604318980/countries/BG.jpg",
            "latitude": "42.733883",
            "longitude": "25.48583",
            "isFavorite": false
        },
        {
            "country": "Burkina Faso",
            "es_name": "Burkina Faso",
            "code": "BF",
            "flag": "https://www.countryflags.io/BF/flat/64.png",
            "image": "https://res.cloudinary.com/lconder/image/upload/v1604318980/countries/BF.jpg",
            "latitude": "12.238333",
            "longitude": "-1.561593",
            "isFavorite": false
        },
        {
            "country": "Burundi",
            "es_name": "Burundi",
            "code": "BI",
            "flag": "https://www.countryflags.io/BI/flat/64.png",
            "image": "https://res.cloudinary.com/lconder/image/upload/v1604318980/countries/BI.jpg",
            "latitude": "-3.373056",
            "longitude": "29.918886",
            "isFavorite": false
        },
        {
            "country": "Cambodia",
            "es_name": "Cambodia",
            "code": "KH",
            "flag": "https://www.countryflags.io/KH/flat/64.png",
            "image": "https://res.cloudinary.com/lconder/image/upload/v1604318980/countries/KH.jpg",
            "latitude": "12.565679",
            "longitude": "104.990963",
            "isFavorite": false
        },
        {
            "country": "Cameroon",
            "es_name": "Cameroon",
            "code": "CM",
            "flag": "https://www.countryflags.io/CM/flat/64.png",
            "image": "https://res.cloudinary.com/lconder/image/upload/v1604318980/countries/CM.jpg",
            "latitude": "7.369722",
            "longitude": "12.354722",
            "isFavorite": false
        },
        {
            "country": "Canada",
            "es_name": "Canada",
            "code": "CA",
            "flag": "https://www.countryflags.io/CA/flat/64.png",
            "image": "https://res.cloudinary.com/lconder/image/upload/v1604318980/countries/CA.jpg",
            "latitude": "56.130366",
            "longitude": "-106.346771",
            "isFavorite": false
        },
        {
            "country": "Cape Verde",
            "es_name": "Cape Verde",
            "code": "CV",
            "flag": "https://www.countryflags.io/CV/flat/64.png",
            "image": "https://res.cloudinary.com/lconder/image/upload/v1604318980/countries/CV.jpg",
            "latitude": "16.002082",
            "longitude": "-24.013197",
            "isFavorite": false
        },
        {
            "country": "Central African Republic",
            "es_name": "Central African Republic",
            "code": "CF",
            "flag": "https://www.countryflags.io/CF/flat/64.png",
            "image": "https://res.cloudinary.com/lconder/image/upload/v1604318980/countries/CF.jpg",
            "latitude": "6.611111",
            "longitude": "20.939444",
            "isFavorite": false
        },
        {
            "country": "Chad",
            "es_name": "Chad",
            "code": "TD",
            "flag": "https://www.countryflags.io/TD/flat/64.png",
            "image": "https://res.cloudinary.com/lconder/image/upload/v1604318980/countries/TD.jpg",
            "latitude": "15.454166",
            "longitude": "18.732207",
            "isFavorite": false
        },
        {
            "country": "Chile",
            "es_name": "Chile",
            "code": "CL",
            "flag": "https://www.countryflags.io/CL/flat/64.png",
            "image": "https://res.cloudinary.com/lconder/image/upload/v1604318980/countries/CL.jpg",
            "latitude": "-35.675147",
            "longitude": "-71.542969",
            "isFavorite": false
        },
        {
            "country": "China",
            "es_name": "China",
            "code": "CN",
            "flag": "https://www.countryflags.io/CN/flat/64.png",
            "image": "https://res.cloudinary.com/lconder/image/upload/v1604318980/countries/CN.jpg",
            "latitude": "35.86166",
            "longitude": "104.195397",
            "isFavorite": false
        },
        {
            "country": "Colombia",
            "es_name": "Colombia",
            "code": "CO",
            "flag": "https://www.countryflags.io/CO/flat/64.png",
            "image": "https://res.cloudinary.com/lconder/image/upload/v1604318980/countries/CO.jpg",
            "latitude": "4.570868",
            "longitude": "-74.297333",
            "isFavorite": false
        },
        {
            "country": "Comoros",
            "es_name": "Comoros",
            "code": "KM",
            "flag": "https://www.countryflags.io/KM/flat/64.png",
            "image": "https://res.cloudinary.com/lconder/image/upload/v1604318980/countries/KM.jpg",
            "latitude": "-11.875001",
            "longitude": "43.872219",
            "isFavorite": false
        },
        {
            "country": "Congo (Brazzaville)",
            "es_name": "Congo (Brazzaville)",
            "code": "CG",
            "flag": "https://www.countryflags.io/CG/flat/64.png",
            "image": "https://res.cloudinary.com/lconder/image/upload/v1604318980/countries/CG.jpg",
            "latitude": "-0.228021",
            "longitude": "15.827659",
            "isFavorite": false
        },
        {
            "country": "Congo (Kinshasa)",
            "es_name": "Congo (Kinshasa)",
            "code": "CD",
            "flag": "https://www.countryflags.io/CD/flat/64.png",
            "image": "https://res.cloudinary.com/lconder/image/upload/v1604318980/countries/CD.jpg",
            "latitude": "-4.038333",
            "longitude": "21.758664",
            "isFavorite": false
        },
        {
            "country": "Costa Rica",
            "es_name": "Costa Rica",
            "code": "CR",
            "flag": "https://www.countryflags.io/CR/flat/64.png",
            "image": "https://res.cloudinary.com/lconder/image/upload/v1604318980/countries/CR.jpg",
            "latitude": "9.748917",
            "longitude": "-83.753428",
            "isFavorite": false
        },
        {
            "country": "Croatia",
            "es_name": "Croatia",
            "code": "HR",
            "flag": "https://www.countryflags.io/HR/flat/64.png",
            "image": "https://res.cloudinary.com/lconder/image/upload/v1604318980/countries/HR.jpg",
            "latitude": "45.1",
            "longitude": "15.2",
            "isFavorite": false
        },
        {
            "country": "Cuba",
            "es_name": "Cuba",
            "code": "CU",
            "flag": "https://www.countryflags.io/CU/flat/64.png",
            "image": "https://res.cloudinary.com/lconder/image/upload/v1604318980/countries/CU.jpg",
            "latitude": "21.521757",
            "longitude": "-77.781167",
            "isFavorite": false
        },
        {
            "country": "Cyprus",
            "es_name": "Cyprus",
            "code": "CY",
            "flag": "https://www.countryflags.io/CY/flat/64.png",
            "image": "https://res.cloudinary.com/lconder/image/upload/v1604318980/countries/CY.jpg",
            "latitude": "35.126413",
            "longitude": "33.429859",
            "isFavorite": false
        },
        {
            "country": "Czech Republic",
            "es_name": "Czech Republic",
            "code": "CZ",
            "flag": "https://www.countryflags.io/CZ/flat/64.png",
            "image": "https://res.cloudinary.com/lconder/image/upload/v1604318980/countries/CZ.jpg",
            "latitude": "49.817492",
            "longitude": "15.472962",
            "isFavorite": false
        },
        {
            "country": "Côte d'Ivoire",
            "es_name": "Côte d'Ivoire",
            "code": "CI",
            "flag": "https://www.countryflags.io/CI/flat/64.png",
            "image": "https://res.cloudinary.com/lconder/image/upload/v1604318980/countries/CI.jpg",
            "latitude": "7.539989",
            "longitude": "-5.54708",
            "isFavorite": false
        },
        {
            "country": "Denmark",
            "es_name": "Denmark",
            "code": "DK",
            "flag": "https://www.countryflags.io/DK/flat/64.png",
            "image": "https://res.cloudinary.com/lconder/image/upload/v1604318980/countries/DK.jpg",
            "latitude": "56.26392",
            "longitude": "9.501785",
            "isFavorite": false
        },
        {
            "country": "Djibouti",
            "es_name": "Djibouti",
            "code": "DJ",
            "flag": "https://www.countryflags.io/DJ/flat/64.png",
            "image": "https://res.cloudinary.com/lconder/image/upload/v1604318980/countries/DJ.jpg",
            "latitude": "11.825138",
            "longitude": "42.590275",
            "isFavorite": false
        },
        {
            "country": "Dominica",
            "es_name": "Dominica",
            "code": "DM",
            "flag": "https://www.countryflags.io/DM/flat/64.png",
            "image": "https://res.cloudinary.com/lconder/image/upload/v1604318980/countries/DM.jpg",
            "latitude": "15.414999",
            "longitude": "-61.370976",
            "isFavorite": false
        },
        {
            "country": "Dominican Republic",
            "es_name": "Dominican Republic",
            "code": "DO",
            "flag": "https://www.countryflags.io/DO/flat/64.png",
            "image": "https://res.cloudinary.com/lconder/image/upload/v1604318980/countries/DO.jpg",
            "latitude": "18.735693",
            "longitude": "-70.162651",
            "isFavorite": false
        },
        {
            "country": "Ecuador",
            "es_name": "Ecuador",
            "code": "EC",
            "flag": "https://www.countryflags.io/EC/flat/64.png",
            "image": "https://res.cloudinary.com/lconder/image/upload/v1604318980/countries/EC.jpg",
            "latitude": "-1.831239",
            "longitude": "-78.183406",
            "isFavorite": false
        },
        {
            "country": "Egypt",
            "es_name": "Egypt",
            "code": "EG",
            "flag": "https://www.countryflags.io/EG/flat/64.png",
            "image": "https://res.cloudinary.com/lconder/image/upload/v1604318980/countries/EG.jpg",
            "latitude": "26.820553",
            "longitude": "30.802498",
            "isFavorite": false
        },
        {
            "country": "El Salvador",
            "es_name": "El Salvador",
            "code": "SV",
            "flag": "https://www.countryflags.io/SV/flat/64.png",
            "image": "https://res.cloudinary.com/lconder/image/upload/v1604318980/countries/SV.jpg",
            "latitude": "13.794185",
            "longitude": "-88.89653",
            "isFavorite": false
        },
        {
            "country": "Equatorial Guinea",
            "es_name": "Equatorial Guinea",
            "code": "GQ",
            "flag": "https://www.countryflags.io/GQ/flat/64.png",
            "image": "https://res.cloudinary.com/lconder/image/upload/v1604318980/countries/GQ.jpg",
            "latitude": "1.650801",
            "longitude": "10.267895",
            "isFavorite": false
        },
        {
            "country": "Eritrea",
            "es_name": "Eritrea",
            "code": "ER",
            "flag": "https://www.countryflags.io/ER/flat/64.png",
            "image": "https://res.cloudinary.com/lconder/image/upload/v1604318980/countries/ER.jpg",
            "latitude": "15.179384",
            "longitude": "39.782334",
            "isFavorite": false
        },
        {
            "country": "Estonia",
            "es_name": "Estonia",
            "code": "EE",
            "flag": "https://www.countryflags.io/EE/flat/64.png",
            "image": "https://res.cloudinary.com/lconder/image/upload/v1604318980/countries/EE.jpg",
            "latitude": "58.595272",
            "longitude": "25.013607",
            "isFavorite": false
        },
        {
            "country": "Ethiopia",
            "es_name": "Ethiopia",
            "code": "ET",
            "flag": "https://www.countryflags.io/ET/flat/64.png",
            "image": "https://res.cloudinary.com/lconder/image/upload/v1604318980/countries/ET.jpg",
            "latitude": "9.145",
            "longitude": "40.489673",
            "isFavorite": false
        },
        {
            "country": "Fiji",
            "es_name": "Fiji",
            "code": "FJ",
            "flag": "https://www.countryflags.io/FJ/flat/64.png",
            "image": "https://res.cloudinary.com/lconder/image/upload/v1604318980/countries/FJ.jpg",
            "latitude": "-16.578193",
            "longitude": "179.414413",
            "isFavorite": false
        },
        {
            "country": "Finland",
            "es_name": "Finland",
            "code": "FI",
            "flag": "https://www.countryflags.io/FI/flat/64.png",
            "image": "https://res.cloudinary.com/lconder/image/upload/v1604318980/countries/FI.jpg",
            "latitude": "61.92411",
            "longitude": "25.748151",
            "isFavorite": false
        },
        {
            "country": "France",
            "es_name": "France",
            "code": "FR",
            "flag": "https://www.countryflags.io/FR/flat/64.png",
            "image": "https://res.cloudinary.com/lconder/image/upload/v1604318980/countries/FR.jpg",
            "latitude": "46.227638",
            "longitude": "2.213749",
            "isFavorite": false
        },
        {
            "country": "Gabon",
            "es_name": "Gabon",
            "code": "GA",
            "flag": "https://www.countryflags.io/GA/flat/64.png",
            "image": "https://res.cloudinary.com/lconder/image/upload/v1604318980/countries/GA.jpg",
            "latitude": "-0.803689",
            "longitude": "11.609444",
            "isFavorite": false
        },
        {
            "country": "Gambia",
            "es_name": "Gambia",
            "code": "GM",
            "flag": "https://www.countryflags.io/GM/flat/64.png",
            "image": "https://res.cloudinary.com/lconder/image/upload/v1604318980/countries/GM.jpg",
            "latitude": "13.443182",
            "longitude": "-15.310139",
            "isFavorite": false
        },
        {
            "country": "Georgia",
            "es_name": "Georgia",
            "code": "GE",
            "flag": "https://www.countryflags.io/GE/flat/64.png",
            "image": "https://res.cloudinary.com/lconder/image/upload/v1604318980/countries/GE.jpg",
            "latitude": "42.315407",
            "longitude": "43.356892",
            "isFavorite": false
        },
        {
            "country": "Germany",
            "es_name": "Germany",
            "code": "DE",
            "flag": "https://www.countryflags.io/DE/flat/64.png",
            "image": "https://res.cloudinary.com/lconder/image/upload/v1604318980/countries/DE.jpg",
            "latitude": "51.165691",
            "longitude": "10.451526",
            "isFavorite": false
        },
        {
            "country": "Ghana",
            "es_name": "Ghana",
            "code": "GH",
            "flag": "https://www.countryflags.io/GH/flat/64.png",
            "image": "https://res.cloudinary.com/lconder/image/upload/v1604318980/countries/GH.jpg",
            "latitude": "7.946527",
            "longitude": "-1.023194",
            "isFavorite": false
        },
        {
            "country": "Greece",
            "es_name": "Greece",
            "code": "GR",
            "flag": "https://www.countryflags.io/GR/flat/64.png",
            "image": "https://res.cloudinary.com/lconder/image/upload/v1604318980/countries/GR.jpg",
            "latitude": "39.074208",
            "longitude": "21.824312",
            "isFavorite": false
        },
        {
            "country": "Grenada",
            "es_name": "Grenada",
            "code": "GD",
            "flag": "https://www.countryflags.io/GD/flat/64.png",
            "image": "https://res.cloudinary.com/lconder/image/upload/v1604318980/countries/GD.jpg",
            "latitude": "12.262776",
            "longitude": "-61.604171",
            "isFavorite": false
        },
        {
            "country": "Guatemala",
            "es_name": "Guatemala",
            "code": "GT",
            "flag": "https://www.countryflags.io/GT/flat/64.png",
            "image": "https://res.cloudinary.com/lconder/image/upload/v1604318980/countries/GT.jpg",
            "latitude": "15.783471",
            "longitude": "-90.230759",
            "isFavorite": false
        },
        {
            "country": "Guinea",
            "es_name": "Guinea",
            "code": "GN",
            "flag": "https://www.countryflags.io/GN/flat/64.png",
            "image": "https://res.cloudinary.com/lconder/image/upload/v1604318980/countries/GN.jpg",
            "latitude": "9.945587",
            "longitude": "-9.696645",
            "isFavorite": false
        },
        {
            "country": "Guinea-Bissau",
            "es_name": "Guinea-Bissau",
            "code": "GW",
            "flag": "https://www.countryflags.io/GW/flat/64.png",
            "image": "https://res.cloudinary.com/lconder/image/upload/v1604318980/countries/GW.jpg",
            "latitude": "11.803749",
            "longitude": "-15.180413",
            "isFavorite": false
        },
        {
            "country": "Guyana",
            "es_name": "Guyana",
            "code": "GY",
            "flag": "https://www.countryflags.io/GY/flat/64.png",
            "image": "https://res.cloudinary.com/lconder/image/upload/v1604318980/countries/GY.jpg",
            "latitude": "4.860416",
            "longitude": "-58.93018",
            "isFavorite": false
        },
        {
            "country": "Haiti",
            "es_name": "Haiti",
            "code": "HT",
            "flag": "https://www.countryflags.io/HT/flat/64.png",
            "image": "https://res.cloudinary.com/lconder/image/upload/v1604318980/countries/HT.jpg",
            "latitude": "18.971187",
            "longitude": "-72.285215",
            "isFavorite": false
        },
        {
            "country": "Holy See (Vatican City State)",
            "es_name": "Holy See (Vatican City State)",
            "code": "VA",
            "flag": "https://www.countryflags.io/VA/flat/64.png",
            "image": "https://res.cloudinary.com/lconder/image/upload/v1604318980/countries/VA.jpg",
            "latitude": "41.902916",
            "longitude": "12.453389",
            "isFavorite": false
        },
        {
            "country": "Honduras",
            "es_name": "Honduras",
            "code": "HN",
            "flag": "https://www.countryflags.io/HN/flat/64.png",
            "image": "https://res.cloudinary.com/lconder/image/upload/v1604318980/countries/HN.jpg",
            "latitude": "15.199999",
            "longitude": "-86.241905",
            "isFavorite": false
        },
        {
            "country": "Hungary",
            "es_name": "Hungary",
            "code": "HU",
            "flag": "https://www.countryflags.io/HU/flat/64.png",
            "image": "https://res.cloudinary.com/lconder/image/upload/v1604318980/countries/HU.jpg",
            "latitude": "47.162494",
            "longitude": "19.503304",
            "isFavorite": false
        },
        {
            "country": "Iceland",
            "es_name": "Iceland",
            "code": "IS",
            "flag": "https://www.countryflags.io/IS/flat/64.png",
            "image": "https://res.cloudinary.com/lconder/image/upload/v1604318980/countries/IS.jpg",
            "latitude": "64.963051",
            "longitude": "-19.020835",
            "isFavorite": false
        },
        {
            "country": "India",
            "es_name": "India",
            "code": "IN",
            "flag": "https://www.countryflags.io/IN/flat/64.png",
            "image": "https://res.cloudinary.com/lconder/image/upload/v1604318980/countries/IN.jpg",
            "latitude": "20.593684",
            "longitude": "78.96288",
            "isFavorite": false
        },
        {
            "country": "Indonesia",
            "es_name": "Indonesia",
            "code": "ID",
            "flag": "https://www.countryflags.io/ID/flat/64.png",
            "image": "https://res.cloudinary.com/lconder/image/upload/v1604318980/countries/ID.jpg",
            "latitude": "-0.789275",
            "longitude": "113.921327",
            "isFavorite": false
        },
        {
            "country": "Iran, Islamic Republic of",
            "es_name": "Iran, Islamic Republic of",
            "code": "IR",
            "flag": "https://www.countryflags.io/IR/flat/64.png",
            "image": "https://res.cloudinary.com/lconder/image/upload/v1604318980/countries/IR.jpg",
            "latitude": "32.427908",
            "longitude": "53.688046",
            "isFavorite": false
        },
        {
            "country": "Iraq",
            "es_name": "Iraq",
            "code": "IQ",
            "flag": "https://www.countryflags.io/IQ/flat/64.png",
            "image": "https://res.cloudinary.com/lconder/image/upload/v1604318980/countries/IQ.jpg",
            "latitude": "33.223191",
            "longitude": "43.679291",
            "isFavorite": false
        },
        {
            "country": "Ireland",
            "es_name": "Ireland",
            "code": "IE",
            "flag": "https://www.countryflags.io/IE/flat/64.png",
            "image": "https://res.cloudinary.com/lconder/image/upload/v1604318980/countries/IE.jpg",
            "latitude": "53.41291",
            "longitude": "-8.24389",
            "isFavorite": false
        },
        {
            "country": "Israel",
            "es_name": "Israel",
            "code": "IL",
            "flag": "https://www.countryflags.io/IL/flat/64.png",
            "image": "https://res.cloudinary.com/lconder/image/upload/v1604318980/countries/IL.jpg",
            "latitude": "31.046051",
            "longitude": "34.851612",
            "isFavorite": false
        },
        {
            "country": "Italy",
            "es_name": "Italy",
            "code": "IT",
            "flag": "https://www.countryflags.io/IT/flat/64.png",
            "image": "https://res.cloudinary.com/lconder/image/upload/v1604318980/countries/IT.jpg",
            "latitude": "41.87194",
            "longitude": "12.56738",
            "isFavorite": false
        },
        {
            "country": "Jamaica",
            "es_name": "Jamaica",
            "code": "JM",
            "flag": "https://www.countryflags.io/JM/flat/64.png",
            "image": "https://res.cloudinary.com/lconder/image/upload/v1604318980/countries/JM.jpg",
            "latitude": "18.109581",
            "longitude": "-77.297508",
            "isFavorite": false
        },
        {
            "country": "Japan",
            "es_name": "Japan",
            "code": "JP",
            "flag": "https://www.countryflags.io/JP/flat/64.png",
            "image": "https://res.cloudinary.com/lconder/image/upload/v1604318980/countries/JP.jpg",
            "latitude": "36.204824",
            "longitude": "138.252924",
            "isFavorite": false
        },
        {
            "country": "Jordan",
            "es_name": "Jordan",
            "code": "JO",
            "flag": "https://www.countryflags.io/JO/flat/64.png",
            "image": "https://res.cloudinary.com/lconder/image/upload/v1604318980/countries/JO.jpg",
            "latitude": "30.585164",
            "longitude": "36.238414",
            "isFavorite": false
        },
        {
            "country": "Kazakhstan",
            "es_name": "Kazakhstan",
            "code": "KZ",
            "flag": "https://www.countryflags.io/KZ/flat/64.png",
            "image": "https://res.cloudinary.com/lconder/image/upload/v1604318980/countries/KZ.jpg",
            "latitude": "48.019573",
            "longitude": "66.923684",
            "isFavorite": false
        },
        {
            "country": "Kenya",
            "es_name": "Kenya",
            "code": "KE",
            "flag": "https://www.countryflags.io/KE/flat/64.png",
            "image": "https://res.cloudinary.com/lconder/image/upload/v1604318980/countries/KE.jpg",
            "latitude": "-0.023559",
            "longitude": "37.906193",
            "isFavorite": false
        },
        {
            "country": "Korea (South)",
            "es_name": "Korea (South)",
            "code": "KR",
            "flag": "https://www.countryflags.io/KR/flat/64.png",
            "image": "https://res.cloudinary.com/lconder/image/upload/v1604318980/countries/KR.jpg",
            "latitude": "35.907757",
            "longitude": "127.766922",
            "isFavorite": false
        },
        {
            "country": "Kuwait",
            "es_name": "Kuwait",
            "code": "KW",
            "flag": "https://www.countryflags.io/KW/flat/64.png",
            "image": "https://res.cloudinary.com/lconder/image/upload/v1604318980/countries/KW.jpg",
            "latitude": "29.31166",
            "longitude": "47.481766",
            "isFavorite": false
        },
        {
            "country": "Kyrgyzstan",
            "es_name": "Kyrgyzstan",
            "code": "KG",
            "flag": "https://www.countryflags.io/KG/flat/64.png",
            "image": "https://res.cloudinary.com/lconder/image/upload/v1604318980/countries/KG.jpg",
            "latitude": "41.20438",
            "longitude": "74.766098",
            "isFavorite": false
        },
        {
            "country": "Lao PDR",
            "es_name": "Lao PDR",
            "code": "LA",
            "flag": "https://www.countryflags.io/LA/flat/64.png",
            "image": "https://res.cloudinary.com/lconder/image/upload/v1604318980/countries/LA.jpg",
            "latitude": "19.85627",
            "longitude": "102.495496",
            "isFavorite": false
        },
        {
            "country": "Latvia",
            "es_name": "Latvia",
            "code": "LV",
            "flag": "https://www.countryflags.io/LV/flat/64.png",
            "image": "https://res.cloudinary.com/lconder/image/upload/v1604318980/countries/LV.jpg",
            "latitude": "56.879635",
            "longitude": "24.603189",
            "isFavorite": false
        },
        {
            "country": "Lebanon",
            "es_name": "Lebanon",
            "code": "LB",
            "flag": "https://www.countryflags.io/LB/flat/64.png",
            "image": "https://res.cloudinary.com/lconder/image/upload/v1604318980/countries/LB.jpg",
            "latitude": "33.854721",
            "longitude": "35.862285",
            "isFavorite": false
        },
        {
            "country": "Lesotho",
            "es_name": "Lesotho",
            "code": "LS",
            "flag": "https://www.countryflags.io/LS/flat/64.png",
            "image": "https://res.cloudinary.com/lconder/image/upload/v1604318980/countries/LS.jpg",
            "latitude": "-29.609988",
            "longitude": "28.233608",
            "isFavorite": false
        },
        {
            "country": "Liberia",
            "es_name": "Liberia",
            "code": "LR",
            "flag": "https://www.countryflags.io/LR/flat/64.png",
            "image": "https://res.cloudinary.com/lconder/image/upload/v1604318980/countries/LR.jpg",
            "latitude": "6.428055",
            "longitude": "-9.429499",
            "isFavorite": false
        },
        {
            "country": "Libya",
            "es_name": "Libya",
            "code": "LY",
            "flag": "https://www.countryflags.io/LY/flat/64.png",
            "image": "https://res.cloudinary.com/lconder/image/upload/v1604318980/countries/LY.jpg",
            "latitude": "26.3351",
            "longitude": "17.228331",
            "isFavorite": false
        },
        {
            "country": "Liechtenstein",
            "es_name": "Liechtenstein",
            "code": "LI",
            "flag": "https://www.countryflags.io/LI/flat/64.png",
            "image": "https://res.cloudinary.com/lconder/image/upload/v1604318980/countries/LI.jpg",
            "latitude": "47.166",
            "longitude": "9.555373",
            "isFavorite": false
        },
        {
            "country": "Lithuania",
            "es_name": "Lithuania",
            "code": "LT",
            "flag": "https://www.countryflags.io/LT/flat/64.png",
            "image": "https://res.cloudinary.com/lconder/image/upload/v1604318980/countries/LT.jpg",
            "latitude": "55.169438",
            "longitude": "23.881275",
            "isFavorite": false
        },
        {
            "country": "Luxembourg",
            "es_name": "Luxembourg",
            "code": "LU",
            "flag": "https://www.countryflags.io/LU/flat/64.png",
            "image": "https://res.cloudinary.com/lconder/image/upload/v1604318980/countries/LU.jpg",
            "latitude": "49.815273",
            "longitude": "6.129583",
            "isFavorite": false
        },
        {
            "country": "Macao, SAR China",
            "es_name": "Macao, SAR China",
            "code": "MO",
            "flag": "https://www.countryflags.io/MO/flat/64.png",
            "image": "https://res.cloudinary.com/lconder/image/upload/v1604318980/countries/MO.jpg",
            "latitude": "22.198745",
            "longitude": "113.543873",
            "isFavorite": false
        },
        {
            "country": "Macedonia, Republic of",
            "es_name": "Macedonia, Republic of",
            "code": "MK",
            "flag": "https://www.countryflags.io/MK/flat/64.png",
            "image": "https://res.cloudinary.com/lconder/image/upload/v1604318980/countries/MK.jpg",
            "latitude": "41.608635",
            "longitude": "21.745275",
            "isFavorite": false
        },
        {
            "country": "Madagascar",
            "es_name": "Madagascar",
            "code": "MG",
            "flag": "https://www.countryflags.io/MG/flat/64.png",
            "image": "https://res.cloudinary.com/lconder/image/upload/v1604318980/countries/MG.jpg",
            "latitude": "-18.766947",
            "longitude": "46.869107",
            "isFavorite": false
        },
        {
            "country": "Malawi",
            "es_name": "Malawi",
            "code": "MW",
            "flag": "https://www.countryflags.io/MW/flat/64.png",
            "image": "https://res.cloudinary.com/lconder/image/upload/v1604318980/countries/MW.jpg",
            "latitude": "-13.254308",
            "longitude": "34.301525",
            "isFavorite": false
        },
        {
            "country": "Malaysia",
            "es_name": "Malaysia",
            "code": "MY",
            "flag": "https://www.countryflags.io/MY/flat/64.png",
            "image": "https://res.cloudinary.com/lconder/image/upload/v1604318980/countries/MY.jpg",
            "latitude": "4.210484",
            "longitude": "101.975766",
            "isFavorite": false
        },
        {
            "country": "Maldives",
            "es_name": "Maldives",
            "code": "MV",
            "flag": "https://www.countryflags.io/MV/flat/64.png",
            "image": "https://res.cloudinary.com/lconder/image/upload/v1604318980/countries/MV.jpg",
            "latitude": "3.202778",
            "longitude": "73.22068",
            "isFavorite": false
        },
        {
            "country": "Mali",
            "es_name": "Mali",
            "code": "ML",
            "flag": "https://www.countryflags.io/ML/flat/64.png",
            "image": "https://res.cloudinary.com/lconder/image/upload/v1604318980/countries/ML.jpg",
            "latitude": "17.570692",
            "longitude": "-3.996166",
            "isFavorite": false
        },
        {
            "country": "Malta",
            "es_name": "Malta",
            "code": "MT",
            "flag": "https://www.countryflags.io/MT/flat/64.png",
            "image": "https://res.cloudinary.com/lconder/image/upload/v1604318980/countries/MT.jpg",
            "latitude": "35.937496",
            "longitude": "14.375416",
            "isFavorite": false
        },
        {
            "country": "Marshall Islands",
            "es_name": "Marshall Islands",
            "code": "MH",
            "flag": "https://www.countryflags.io/MH/flat/64.png",
            "image": "https://res.cloudinary.com/lconder/image/upload/v1604318980/countries/MH.jpg",
            "latitude": "7.131474",
            "longitude": "171.184478",
            "isFavorite": false
        },
        {
            "country": "Mauritania",
            "es_name": "Mauritania",
            "code": "MR",
            "flag": "https://www.countryflags.io/MR/flat/64.png",
            "image": "https://res.cloudinary.com/lconder/image/upload/v1604318980/countries/MR.jpg",
            "latitude": "21.00789",
            "longitude": "-10.940835",
            "isFavorite": false
        },
        {
            "country": "Mauritius",
            "es_name": "Mauritius",
            "code": "MU",
            "flag": "https://www.countryflags.io/MU/flat/64.png",
            "image": "https://res.cloudinary.com/lconder/image/upload/v1604318980/countries/MU.jpg",
            "latitude": "-20.348404",
            "longitude": "57.552152",
            "isFavorite": false
        },
        {
            "country": "Mexico",
            "es_name": "Mexico",
            "code": "MX",
            "flag": "https://www.countryflags.io/MX/flat/64.png",
            "image": "https://res.cloudinary.com/lconder/image/upload/v1604318980/countries/MX.jpg",
            "latitude": "23.634501",
            "longitude": "-102.552784",
            "isFavorite": false
        },
        {
            "country": "Moldova",
            "es_name": "Moldova",
            "code": "MD",
            "flag": "https://www.countryflags.io/MD/flat/64.png",
            "image": "https://res.cloudinary.com/lconder/image/upload/v1604318980/countries/MD.jpg",
            "latitude": "47.411631",
            "longitude": "28.369885",
            "isFavorite": false
        },
        {
            "country": "Monaco",
            "es_name": "Monaco",
            "code": "MC",
            "flag": "https://www.countryflags.io/MC/flat/64.png",
            "image": "https://res.cloudinary.com/lconder/image/upload/v1604318980/countries/MC.jpg",
            "latitude": "43.750298",
            "longitude": "7.412841",
            "isFavorite": false
        },
        {
            "country": "Mongolia",
            "es_name": "Mongolia",
            "code": "MN",
            "flag": "https://www.countryflags.io/MN/flat/64.png",
            "image": "https://res.cloudinary.com/lconder/image/upload/v1604318980/countries/MN.jpg",
            "latitude": "46.862496",
            "longitude": "103.846656",
            "isFavorite": false
        },
        {
            "country": "Montenegro",
            "es_name": "Montenegro",
            "code": "ME",
            "flag": "https://www.countryflags.io/ME/flat/64.png",
            "image": "https://res.cloudinary.com/lconder/image/upload/v1604318980/countries/ME.jpg",
            "latitude": "42.708678",
            "longitude": "19.37439",
            "isFavorite": false
        },
        {
            "country": "Morocco",
            "es_name": "Morocco",
            "code": "MA",
            "flag": "https://www.countryflags.io/MA/flat/64.png",
            "image": "https://res.cloudinary.com/lconder/image/upload/v1604318980/countries/MA.jpg",
            "latitude": "31.791702",
            "longitude": "-7.09262",
            "isFavorite": false
        },
        {
            "country": "Mozambique",
            "es_name": "Mozambique",
            "code": "MZ",
            "flag": "https://www.countryflags.io/MZ/flat/64.png",
            "image": "https://res.cloudinary.com/lconder/image/upload/v1604318980/countries/MZ.jpg",
            "latitude": "-18.665695",
            "longitude": "35.529562",
            "isFavorite": false
        },
        {
            "country": "Myanmar",
            "es_name": "Myanmar",
            "code": "MM",
            "flag": "https://www.countryflags.io/MM/flat/64.png",
            "image": "https://res.cloudinary.com/lconder/image/upload/v1604318980/countries/MM.jpg",
            "latitude": "21.913965",
            "longitude": "95.956223",
            "isFavorite": false
        },
        {
            "country": "Namibia",
            "es_name": "Namibia",
            "code": "NA",
            "flag": "https://www.countryflags.io/NA/flat/64.png",
            "image": "https://res.cloudinary.com/lconder/image/upload/v1604318980/countries/NA.jpg",
            "latitude": "-22.95764",
            "longitude": "18.49041",
            "isFavorite": false
        },
        {
            "country": "Nepal",
            "es_name": "Nepal",
            "code": "NP",
            "flag": "https://www.countryflags.io/NP/flat/64.png",
            "image": "https://res.cloudinary.com/lconder/image/upload/v1604318980/countries/NP.jpg",
            "latitude": "28.394857",
            "longitude": "84.124008",
            "isFavorite": false
        },
        {
            "country": "Netherlands",
            "es_name": "Netherlands",
            "code": "NL",
            "flag": "https://www.countryflags.io/NL/flat/64.png",
            "image": "https://res.cloudinary.com/lconder/image/upload/v1604318980/countries/NL.jpg",
            "latitude": "52.132633",
            "longitude": "5.291266",
            "isFavorite": false
        },
        {
            "country": "New Zealand",
            "es_name": "New Zealand",
            "code": "NZ",
            "flag": "https://www.countryflags.io/NZ/flat/64.png",
            "image": "https://res.cloudinary.com/lconder/image/upload/v1604318980/countries/NZ.jpg",
            "latitude": "-40.900557",
            "longitude": "174.885971",
            "isFavorite": false
        },
        {
            "country": "Nicaragua",
            "es_name": "Nicaragua",
            "code": "NI",
            "flag": "https://www.countryflags.io/NI/flat/64.png",
            "image": "https://res.cloudinary.com/lconder/image/upload/v1604318980/countries/NI.jpg",
            "latitude": "12.865416",
            "longitude": "-85.207229",
            "isFavorite": false
        },
        {
            "country": "Niger",
            "es_name": "Niger",
            "code": "NE",
            "flag": "https://www.countryflags.io/NE/flat/64.png",
            "image": "https://res.cloudinary.com/lconder/image/upload/v1604318980/countries/NE.jpg",
            "latitude": "17.607789",
            "longitude": "8.081666",
            "isFavorite": false
        },
        {
            "country": "Nigeria",
            "es_name": "Nigeria",
            "code": "NG",
            "flag": "https://www.countryflags.io/NG/flat/64.png",
            "image": "https://res.cloudinary.com/lconder/image/upload/v1604318980/countries/NG.jpg",
            "latitude": "9.081999",
            "longitude": "8.675277",
            "isFavorite": false
        },
        {
            "country": "Norway",
            "es_name": "Norway",
            "code": "NO",
            "flag": "https://www.countryflags.io/NO/flat/64.png",
            "image": "https://res.cloudinary.com/lconder/image/upload/v1604318980/countries/NO.jpg",
            "latitude": "60.472024",
            "longitude": "8.468946",
            "isFavorite": false
        },
        {
            "country": "Oman",
            "es_name": "Oman",
            "code": "OM",
            "flag": "https://www.countryflags.io/OM/flat/64.png",
            "image": "https://res.cloudinary.com/lconder/image/upload/v1604318980/countries/OM.jpg",
            "latitude": "21.512583",
            "longitude": "55.923255",
            "isFavorite": false
        },
        {
            "country": "Pakistan",
            "es_name": "Pakistan",
            "code": "PK",
            "flag": "https://www.countryflags.io/PK/flat/64.png",
            "image": "https://res.cloudinary.com/lconder/image/upload/v1604318980/countries/PK.jpg",
            "latitude": "30.375321",
            "longitude": "69.345116",
            "isFavorite": false
        },
        {
            "country": "Palestinian Territory",
            "es_name": "Palestinian Territory",
            "code": "PS",
            "flag": "https://www.countryflags.io/PS/flat/64.png",
            "image": "https://res.cloudinary.com/lconder/image/upload/v1604318980/countries/PS.jpg",
            "latitude": "31.952162",
            "longitude": "35.233154",
            "isFavorite": false
        },
        {
            "country": "Panama",
            "es_name": "Panama",
            "code": "PA",
            "flag": "https://www.countryflags.io/PA/flat/64.png",
            "image": "https://res.cloudinary.com/lconder/image/upload/v1604318980/countries/PA.jpg",
            "latitude": "8.537981",
            "longitude": "-80.782127",
            "isFavorite": false
        },
        {
            "country": "Papua New Guinea",
            "es_name": "Papua New Guinea",
            "code": "PG",
            "flag": "https://www.countryflags.io/PG/flat/64.png",
            "image": "https://res.cloudinary.com/lconder/image/upload/v1604318980/countries/PG.jpg",
            "latitude": "-6.314993",
            "longitude": "143.95555",
            "isFavorite": false
        },
        {
            "country": "Paraguay",
            "es_name": "Paraguay",
            "code": "PY",
            "flag": "https://www.countryflags.io/PY/flat/64.png",
            "image": "https://res.cloudinary.com/lconder/image/upload/v1604318980/countries/PY.jpg",
            "latitude": "-23.442503",
            "longitude": "-58.443832",
            "isFavorite": false
        },
        {
            "country": "Peru",
            "es_name": "Peru",
            "code": "PE",
            "flag": "https://www.countryflags.io/PE/flat/64.png",
            "image": "https://res.cloudinary.com/lconder/image/upload/v1604318980/countries/PE.jpg",
            "latitude": "-9.189967",
            "longitude": "-75.015152",
            "isFavorite": false
        },
        {
            "country": "Philippines",
            "es_name": "Philippines",
            "code": "PH",
            "flag": "https://www.countryflags.io/PH/flat/64.png",
            "image": "https://res.cloudinary.com/lconder/image/upload/v1604318980/countries/PH.jpg",
            "latitude": "12.879721",
            "longitude": "121.774017",
            "isFavorite": false
        },
        {
            "country": "Poland",
            "es_name": "Poland",
            "code": "PL",
            "flag": "https://www.countryflags.io/PL/flat/64.png",
            "image": "https://res.cloudinary.com/lconder/image/upload/v1604318980/countries/PL.jpg",
            "latitude": "51.919438",
            "longitude": "19.145136",
            "isFavorite": false
        },
        {
            "country": "Portugal",
            "es_name": "Portugal",
            "code": "PT",
            "flag": "https://www.countryflags.io/PT/flat/64.png",
            "image": "https://res.cloudinary.com/lconder/image/upload/v1604318980/countries/PT.jpg",
            "latitude": "39.399872",
            "longitude": "-8.224454",
            "isFavorite": false
        },
        {
            "country": "Qatar",
            "es_name": "Qatar",
            "code": "QA",
            "flag": "https://www.countryflags.io/QA/flat/64.png",
            "image": "https://res.cloudinary.com/lconder/image/upload/v1604318980/countries/QA.jpg",
            "latitude": "25.354826",
            "longitude": "51.183884",
            "isFavorite": false
        },
        {
            "country": "Republic of Kosovo",
            "es_name": "Republic of Kosovo",
            "code": "XK",
            "flag": "https://www.countryflags.io/XK/flat/64.png",
            "image": "https://res.cloudinary.com/lconder/image/upload/v1604318980/countries/XK.jpg",
            "latitude": "42.602636",
            "longitude": "20.902977",
            "isFavorite": false
        },
        {
            "country": "Romania",
            "es_name": "Romania",
            "code": "RO",
            "flag": "https://www.countryflags.io/RO/flat/64.png",
            "image": "https://res.cloudinary.com/lconder/image/upload/v1604318980/countries/RO.jpg",
            "latitude": "45.943161",
            "longitude": "24.96676",
            "isFavorite": false
        },
        {
            "country": "Russian Federation",
            "es_name": "Russian Federation",
            "code": "RU",
            "flag": "https://www.countryflags.io/RU/flat/64.png",
            "image": "https://res.cloudinary.com/lconder/image/upload/v1604318980/countries/RU.jpg",
            "latitude": "61.52401",
            "longitude": "105.318756",
            "isFavorite": false
        },
        {
            "country": "Rwanda",
            "es_name": "Rwanda",
            "code": "RW",
            "flag": "https://www.countryflags.io/RW/flat/64.png",
            "image": "https://res.cloudinary.com/lconder/image/upload/v1604318980/countries/RW.jpg",
            "latitude": "-1.940278",
            "longitude": "29.873888",
            "isFavorite": false
        },
        {
            "country": "Réunion",
            "es_name": "Réunion",
            "code": "RE",
            "flag": "https://www.countryflags.io/RE/flat/64.png",
            "image": "https://res.cloudinary.com/lconder/image/upload/v1604318980/countries/RE.jpg",
            "latitude": "-21.115141",
            "longitude": "55.536384",
            "isFavorite": false
        },
        {
            "country": "Saint Kitts and Nevis",
            "es_name": "Saint Kitts and Nevis",
            "code": "KN",
            "flag": "https://www.countryflags.io/KN/flat/64.png",
            "image": "https://res.cloudinary.com/lconder/image/upload/v1604318980/countries/KN.jpg",
            "latitude": "17.357822",
            "longitude": "-62.782998",
            "isFavorite": false
        },
        {
            "country": "Saint Lucia",
            "es_name": "Saint Lucia",
            "code": "LC",
            "flag": "https://www.countryflags.io/LC/flat/64.png",
            "image": "https://res.cloudinary.com/lconder/image/upload/v1604318980/countries/LC.jpg",
            "latitude": "13.909444",
            "longitude": "-60.978893",
            "isFavorite": false
        },
        {
            "country": "Saint Vincent and Grenadines",
            "es_name": "Saint Vincent and Grenadines",
            "code": "VC",
            "flag": "https://www.countryflags.io/VC/flat/64.png",
            "image": "https://res.cloudinary.com/lconder/image/upload/v1604318980/countries/VC.jpg",
            "latitude": "12.984305",
            "longitude": "-61.287228",
            "isFavorite": false
        },
        {
            "country": "San Marino",
            "es_name": "San Marino",
            "code": "SM",
            "flag": "https://www.countryflags.io/SM/flat/64.png",
            "image": "https://res.cloudinary.com/lconder/image/upload/v1604318980/countries/SM.jpg",
            "latitude": "43.94236",
            "longitude": "12.457777",
            "isFavorite": false
        },
        {
            "country": "Sao Tome and Principe",
            "es_name": "Sao Tome and Principe",
            "code": "ST",
            "flag": "https://www.countryflags.io/ST/flat/64.png",
            "image": "https://res.cloudinary.com/lconder/image/upload/v1604318980/countries/ST.jpg",
            "latitude": "0.18636",
            "longitude": "6.613081",
            "isFavorite": false
        },
        {
            "country": "Saudi Arabia",
            "es_name": "Saudi Arabia",
            "code": "SA",
            "flag": "https://www.countryflags.io/SA/flat/64.png",
            "image": "https://res.cloudinary.com/lconder/image/upload/v1604318980/countries/SA.jpg",
            "latitude": "23.885942",
            "longitude": "45.079162",
            "isFavorite": false
        },
        {
            "country": "Senegal",
            "es_name": "Senegal",
            "code": "SN",
            "flag": "https://www.countryflags.io/SN/flat/64.png",
            "image": "https://res.cloudinary.com/lconder/image/upload/v1604318980/countries/SN.jpg",
            "latitude": "14.497401",
            "longitude": "-14.452362",
            "isFavorite": false
        },
        {
            "country": "Serbia",
            "es_name": "Serbia",
            "code": "RS",
            "flag": "https://www.countryflags.io/RS/flat/64.png",
            "image": "https://res.cloudinary.com/lconder/image/upload/v1604318980/countries/RS.jpg",
            "latitude": "44.016521",
            "longitude": "21.005859",
            "isFavorite": false
        },
        {
            "country": "Seychelles",
            "es_name": "Seychelles",
            "code": "SC",
            "flag": "https://www.countryflags.io/SC/flat/64.png",
            "image": "https://res.cloudinary.com/lconder/image/upload/v1604318980/countries/SC.jpg",
            "latitude": "-4.679574",
            "longitude": "55.491977",
            "isFavorite": false
        },
        {
            "country": "Sierra Leone",
            "es_name": "Sierra Leone",
            "code": "SL",
            "flag": "https://www.countryflags.io/SL/flat/64.png",
            "image": "https://res.cloudinary.com/lconder/image/upload/v1604318980/countries/SL.jpg",
            "latitude": "8.460555",
            "longitude": "-11.779889",
            "isFavorite": false
        },
        {
            "country": "Singapore",
            "es_name": "Singapore",
            "code": "SG",
            "flag": "https://www.countryflags.io/SG/flat/64.png",
            "image": "https://res.cloudinary.com/lconder/image/upload/v1604318980/countries/SG.jpg",
            "latitude": "1.352083",
            "longitude": "103.819836",
            "isFavorite": false
        },
        {
            "country": "Slovakia",
            "es_name": "Slovakia",
            "code": "SK",
            "flag": "https://www.countryflags.io/SK/flat/64.png",
            "image": "https://res.cloudinary.com/lconder/image/upload/v1604318980/countries/SK.jpg",
            "latitude": "48.669026",
            "longitude": "19.699024",
            "isFavorite": false
        },
        {
            "country": "Slovenia",
            "es_name": "Slovenia",
            "code": "SI",
            "flag": "https://www.countryflags.io/SI/flat/64.png",
            "image": "https://res.cloudinary.com/lconder/image/upload/v1604318980/countries/SI.jpg",
            "latitude": "46.151241",
            "longitude": "14.995463",
            "isFavorite": false
        },
        {
            "country": "Solomon Islands",
            "es_name": "Solomon Islands",
            "code": "SB",
            "flag": "https://www.countryflags.io/SB/flat/64.png",
            "image": "https://res.cloudinary.com/lconder/image/upload/v1604318980/countries/SB.jpg",
            "latitude": "-9.64571",
            "longitude": "160.156194",
            "isFavorite": false
        },
        {
            "country": "Somalia",
            "es_name": "Somalia",
            "code": "SO",
            "flag": "https://www.countryflags.io/SO/flat/64.png",
            "image": "https://res.cloudinary.com/lconder/image/upload/v1604318980/countries/SO.jpg",
            "latitude": "5.152149",
            "longitude": "46.199616",
            "isFavorite": false
        },
        {
            "country": "South Africa",
            "es_name": "South Africa",
            "code": "ZA",
            "flag": "https://www.countryflags.io/ZA/flat/64.png",
            "image": "https://res.cloudinary.com/lconder/image/upload/v1604318980/countries/ZA.jpg",
            "latitude": "-30.559482",
            "longitude": "22.937506",
            "isFavorite": false
        },
        {
            "country": "South Sudan",
            "es_name": "South Sudan",
            "code": "SS",
            "flag": "https://www.countryflags.io/SS/flat/64.png",
            "image": "https://res.cloudinary.com/lconder/image/upload/v1604318980/countries/SS.jpg",
            "latitude": 0,
            "longitude": 0,
            "isFavorite": false
        },
        {
            "country": "Spain",
            "es_name": "Spain",
            "code": "ES",
            "flag": "https://www.countryflags.io/ES/flat/64.png",
            "image": "https://res.cloudinary.com/lconder/image/upload/v1604318980/countries/ES.jpg",
            "latitude": "40.463667",
            "longitude": "-3.74922",
            "isFavorite": false
        },
        {
            "country": "Sri Lanka",
            "es_name": "Sri Lanka",
            "code": "LK",
            "flag": "https://www.countryflags.io/LK/flat/64.png",
            "image": "https://res.cloudinary.com/lconder/image/upload/v1604318980/countries/LK.jpg",
            "latitude": "7.873054",
            "longitude": "80.771797",
            "isFavorite": false
        },
        {
            "country": "Sudan",
            "es_name": "Sudan",
            "code": "SD",
            "flag": "https://www.countryflags.io/SD/flat/64.png",
            "image": "https://res.cloudinary.com/lconder/image/upload/v1604318980/countries/SD.jpg",
            "latitude": "12.862807",
            "longitude": "30.217636",
            "isFavorite": false
        },
        {
            "country": "Suriname",
            "es_name": "Suriname",
            "code": "SR",
            "flag": "https://www.countryflags.io/SR/flat/64.png",
            "image": "https://res.cloudinary.com/lconder/image/upload/v1604318980/countries/SR.jpg",
            "latitude": "3.919305",
            "longitude": "-56.027783",
            "isFavorite": false
        },
        {
            "country": "Swaziland",
            "es_name": "Swaziland",
            "code": "SZ",
            "flag": "https://www.countryflags.io/SZ/flat/64.png",
            "image": "https://res.cloudinary.com/lconder/image/upload/v1604318980/countries/SZ.jpg",
            "latitude": "-26.522503",
            "longitude": "31.465866",
            "isFavorite": false
        },
        {
            "country": "Sweden",
            "es_name": "Sweden",
            "code": "SE",
            "flag": "https://www.countryflags.io/SE/flat/64.png",
            "image": "https://res.cloudinary.com/lconder/image/upload/v1604318980/countries/SE.jpg",
            "latitude": "60.128161",
            "longitude": "18.643501",
            "isFavorite": false
        },
        {
            "country": "Switzerland",
            "es_name": "Switzerland",
            "code": "CH",
            "flag": "https://www.countryflags.io/CH/flat/64.png",
            "image": "https://res.cloudinary.com/lconder/image/upload/v1604318980/countries/CH.jpg",
            "latitude": "46.818188",
            "longitude": "8.227512",
            "isFavorite": false
        },
        {
            "country": "Syrian Arab Republic (Syria)",
            "es_name": "Syrian Arab Republic (Syria)",
            "code": "SY",
            "flag": "https://www.countryflags.io/SY/flat/64.png",
            "image": "https://res.cloudinary.com/lconder/image/upload/v1604318980/countries/SY.jpg",
            "latitude": "34.802075",
            "longitude": "38.996815",
            "isFavorite": false
        },
        {
            "country": "Taiwan, Republic of China",
            "es_name": "Taiwan, Republic of China",
            "code": "TW",
            "flag": "https://www.countryflags.io/TW/flat/64.png",
            "image": "https://res.cloudinary.com/lconder/image/upload/v1604318980/countries/TW.jpg",
            "latitude": "23.69781",
            "longitude": "120.960515",
            "isFavorite": false
        },
        {
            "country": "Tajikistan",
            "es_name": "Tajikistan",
            "code": "TJ",
            "flag": "https://www.countryflags.io/TJ/flat/64.png",
            "image": "https://res.cloudinary.com/lconder/image/upload/v1604318980/countries/TJ.jpg",
            "latitude": "38.861034",
            "longitude": "71.276093",
            "isFavorite": false
        },
        {
            "country": "Tanzania, United Republic of",
            "es_name": "Tanzania, United Republic of",
            "code": "TZ",
            "flag": "https://www.countryflags.io/TZ/flat/64.png",
            "image": "https://res.cloudinary.com/lconder/image/upload/v1604318980/countries/TZ.jpg",
            "latitude": "-6.369028",
            "longitude": "34.888822",
            "isFavorite": false
        },
        {
            "country": "Thailand",
            "es_name": "Thailand",
            "code": "TH",
            "flag": "https://www.countryflags.io/TH/flat/64.png",
            "image": "https://res.cloudinary.com/lconder/image/upload/v1604318980/countries/TH.jpg",
            "latitude": "15.870032",
            "longitude": "100.992541",
            "isFavorite": false
        },
        {
            "country": "Timor-Leste",
            "es_name": "Timor-Leste",
            "code": "TL",
            "flag": "https://www.countryflags.io/TL/flat/64.png",
            "image": "https://res.cloudinary.com/lconder/image/upload/v1604318980/countries/TL.jpg",
            "latitude": "-8.874217",
            "longitude": "125.727539",
            "isFavorite": false
        },
        {
            "country": "Togo",
            "es_name": "Togo",
            "code": "TG",
            "flag": "https://www.countryflags.io/TG/flat/64.png",
            "image": "https://res.cloudinary.com/lconder/image/upload/v1604318980/countries/TG.jpg",
            "latitude": "8.619543",
            "longitude": "0.824782",
            "isFavorite": false
        },
        {
            "country": "Trinidad and Tobago",
            "es_name": "Trinidad and Tobago",
            "code": "TT",
            "flag": "https://www.countryflags.io/TT/flat/64.png",
            "image": "https://res.cloudinary.com/lconder/image/upload/v1604318980/countries/TT.jpg",
            "latitude": "10.691803",
            "longitude": "-61.222503",
            "isFavorite": false
        },
        {
            "country": "Tunisia",
            "es_name": "Tunisia",
            "code": "TN",
            "flag": "https://www.countryflags.io/TN/flat/64.png",
            "image": "https://res.cloudinary.com/lconder/image/upload/v1604318980/countries/TN.jpg",
            "latitude": "33.886917",
            "longitude": "9.537499",
            "isFavorite": false
        },
        {
            "country": "Turkey",
            "es_name": "Turkey",
            "code": "TR",
            "flag": "https://www.countryflags.io/TR/flat/64.png",
            "image": "https://res.cloudinary.com/lconder/image/upload/v1604318980/countries/TR.jpg",
            "latitude": "38.963745",
            "longitude": "35.243322",
            "isFavorite": false
        },
        {
            "country": "Uganda",
            "es_name": "Uganda",
            "code": "UG",
            "flag": "https://www.countryflags.io/UG/flat/64.png",
            "image": "https://res.cloudinary.com/lconder/image/upload/v1604318980/countries/UG.jpg",
            "latitude": "1.373333",
            "longitude": "32.290275",
            "isFavorite": false
        },
        {
            "country": "Ukraine",
            "es_name": "Ukraine",
            "code": "UA",
            "flag": "https://www.countryflags.io/UA/flat/64.png",
            "image": "https://res.cloudinary.com/lconder/image/upload/v1604318980/countries/UA.jpg",
            "latitude": "48.379433",
            "longitude": "31.16558",
            "isFavorite": false
        },
        {
            "country": "United Arab Emirates",
            "es_name": "United Arab Emirates",
            "code": "AE",
            "flag": "https://www.countryflags.io/AE/flat/64.png",
            "image": "https://res.cloudinary.com/lconder/image/upload/v1604318980/countries/AE.jpg",
            "latitude": "23.424076",
            "longitude": "53.847818",
            "isFavorite": false
        },
        {
            "country": "United Kingdom",
            "es_name": "United Kingdom",
            "code": "GB",
            "flag": "https://www.countryflags.io/GB/flat/64.png",
            "image": "https://res.cloudinary.com/lconder/image/upload/v1604318980/countries/GB.jpg",
            "latitude": "55.378051",
            "longitude": "-3.435973",
            "isFavorite": false
        },
        {
            "country": "United States of America",
            "es_name": "United States of America",
            "code": "US",
            "flag": "https://www.countryflags.io/US/flat/64.png",
            "image": "https://res.cloudinary.com/lconder/image/upload/v1604318980/countries/US.jpg",
            "latitude": "37.09024",
            "longitude": "-95.712891",
            "isFavorite": false
        },
        {
            "country": "Uruguay",
            "es_name": "Uruguay",
            "code": "UY",
            "flag": "https://www.countryflags.io/UY/flat/64.png",
            "image": "https://res.cloudinary.com/lconder/image/upload/v1604318980/countries/UY.jpg",
            "latitude": "-32.522779",
            "longitude": "-55.765835",
            "isFavorite": false
        },
        {
            "country": "Uzbekistan",
            "es_name": "Uzbekistan",
            "code": "UZ",
            "flag": "https://www.countryflags.io/UZ/flat/64.png",
            "image": "https://res.cloudinary.com/lconder/image/upload/v1604318980/countries/UZ.jpg",
            "latitude": "41.377491",
            "longitude": "64.585262",
            "isFavorite": false
        },
        {
            "country": "Venezuela (Bolivarian Republic)",
            "es_name": "Venezuela (Bolivarian Republic)",
            "code": "VE",
            "flag": "https://www.countryflags.io/VE/flat/64.png",
            "image": "https://res.cloudinary.com/lconder/image/upload/v1604318980/countries/VE.jpg",
            "latitude": "6.42375",
            "longitude": "-66.58973",
            "isFavorite": false
        },
        {
            "country": "Viet Nam",
            "es_name": "Viet Nam",
            "code": "VN",
            "flag": "https://www.countryflags.io/VN/flat/64.png",
            "image": "https://res.cloudinary.com/lconder/image/upload/v1604318980/countries/VN.jpg",
            "latitude": "14.058324",
            "longitude": "108.277199",
            "isFavorite": false
        },
        {
            "country": "Western Sahara",
            "es_name": "Western Sahara",
            "code": "EH",
            "flag": "https://www.countryflags.io/EH/flat/64.png",
            "image": "https://res.cloudinary.com/lconder/image/upload/v1604318980/countries/EH.jpg",
            "latitude": "24.215527",
            "longitude": "-12.885834",
            "isFavorite": false
        },
        {
            "country": "Yemen",
            "es_name": "Yemen",
            "code": "YE",
            "flag": "https://www.countryflags.io/YE/flat/64.png",
            "image": "https://res.cloudinary.com/lconder/image/upload/v1604318980/countries/YE.jpg",
            "latitude": "15.552727",
            "longitude": "48.516388",
            "isFavorite": false
        },
        {
            "country": "Zambia",
            "es_name": "Zambia",
            "code": "ZM",
            "flag": "https://www.countryflags.io/ZM/flat/64.png",
            "image": "https://res.cloudinary.com/lconder/image/upload/v1604318980/countries/ZM.jpg",
            "latitude": "-13.133897",
            "longitude": "27.849332",
            "isFavorite": false
        },
        {
            "country": "Zimbabwe",
            "es_name": "Zimbabwe",
            "code": "ZW",
            "flag": "https://www.countryflags.io/ZW/flat/64.png",
            "image": "https://res.cloudinary.com/lconder/image/upload/v1604318980/countries/ZW.jpg",
            "latitude": "-19.015438",
            "longitude": "29.154857",
            "isFavorite": false
        }
    ]
}